cityu_name,latitude,longitude,elevation (m)
Manila,14.5995,120.9842,16
Cebu City,10.3157,123.8854,0
Davao,7.1907,125.4553,33
Baguio,16.4023,120.596,1500
Tagaytay City,14.089,120.5647,634
Puerto Princesa City,9.745,118.7369,10
Zamboanga City,6.9322,122.0785,11
Cagayan de Oro,8.4815,124.6488,0
Dumaguete,9.3073,123.3073,0
Iloilo City,10.7202,122.561,12
